{
  "days": [
    {
      "day": 1,
      "title": "A안 · 원도심 도보 코스",
      "mode": "walking",
      "stops": [
        { "order": 1, "name": "정동문화사", "address": "대전 동구 창조2길 11", "lat": 36.3276859, "lng": 127.4356147, "note": "대전역에서 도보 5분, 코스 시작점" },
        { "order": 2, "name": "소제동 카페거리", "address": "대전 동구 수향길 53", "lat": 36.3358716, "lng": 127.4374378, "note": "옛 철도관사촌 감성 카페거리, 도보 5~10분" },
        { "order": 3, "name": "콜드버터베이크샵 본점", "address": "대전 중구 중앙로112번길 37", "lat": 36.3257896, "lng": 127.4233942, "note": "원도심 중앙가로 이동, 도보 15~20분" },
        { "order": 4, "name": "몽심 대흥점", "address": "대전 중구 중교로 32", "lat": 36.3250012, "lng": 127.4235181, "note": "도보 3분 거리" },
        { "order": 5, "name": "성심당문화원", "address": "대전 중구 중교로73번길 11", "lat": 36.3270791, "lng": 127.4273955, "note": "도보 2~3분" },
        { "order": 6, "name": "성심당 본점", "address": "대전 중구 대종로480번길 15", "lat": 36.3276832, "lng": 127.4273424, "note": "코스 마무리, 빵 포장" }
      ]
    },
    {
      "day": 2,
      "title": "B안 · 서구·유성 드라이브 코스",
      "mode": "driving",
      "stops": [
        { "order": 1, "name": "하레하레 도안점", "address": "대전 서구 원도안로26번길 13", "lat": 36.3068476, "lng": 127.3490797, "note": "시작점" },
        { "order": 2, "name": "플래닛에그타르트", "address": "대전 서구 갈마역로25번길 21 1층", "lat": 36.3526694, "lng": 127.3730380, "note": "차량 약 10분, 북쪽 이동" },
        { "order": 3, "name": "꾸드뱅베이커스하우스", "address": "대전 유성구 지족동로 146", "lat": 36.3867471, "lng": 127.3087045, "note": "차량 약 15~20분" },
        { "order": 4, "name": "그린베이커리", "address": "대전 유성구 테크노4로 80-7", "lat": 36.4277440, "lng": 127.3896341, "note": "차량 약 15~20분, 최북단 도착점" }
      ]
    }
  ]
}
